$GPRMC,204427,A,2344.415701,S,04635.031168,W,20.0,,010213,0.0,W,A*21
$GPGSA,A,3,01,03,11,14,19,20,22,23,27,31,32,,,,*16
$GPGSV,3,1,11,01,25,216,17,03,31,317,19,11,45,227,16,14,33,143,15*2D
$GPGSV,3,2,11,19,47,300,19,20,13,248,16,22,20,112,14,23,11,310,18*75
$GPGSV,3,3,11,27,29,343,17,31,37,046,23,32,41,224,24*61
$GPGGA,204428,2344.415701,S,04635.031167,W,1,11,,,,785.6,M,,*35
$GPVTG,nan,T,nan,M,0.0,N,0.0,K,A*23
$GPRMC,204428,A,2344.415701,S,04635.031167,W,40.0,,230114,0.0,W,A*21
$GPGSA,A,3,01,03,11,14,19,20,22,23,27,31,32,,,,*16
$GPGSV,3,1,11,01,25,216,15,03,31,317,20,11,45,227,16,14,33,143,15*25
$GPGSV,3,2,11,19,47,300,18,20,13,248,16,22,20,112,14,23,11,310,18*0D
$GPGSV,3,3,11,27,29,343,17,31,37,046,23,32,41,224,20*6B
$GPGGA,204429,2344.415700,S,04635.031166,W,1,11,,,,785.6,M,,*34
$GPVTG,nan,T,nan,M,0.0,N,0.0,K,A*23
$GPRMC,204429,A,2344.415700,S,04635.031166,W,30.0,,230414,0.0,W,A*20
$GPGSA,A,3,01,03,11,14,19,20,22,23,27,31,32,,,,*16
$GPGSV,3,1,11,01,25,216,15,03,31,317,20,11,45,227,16,14,33,143,15*25
$GPGSV,3,2,11,19,47,300,18,20,13,248,16,22,20,112,14,23,11,310,18*0D
$GPGSV,3,3,11,27,29,343,17,31,37,046,23,32,41,224,19*61
$GPGGA,204430,2344.415700,S,04635.031166,W,1,11,,,,785.6,M,,*3C
$GPVTG,nan,T,nan,M,0.0,N,0.0,K,A*23
$GPRMC,204430,A,2344.415700,S,04635.031166,W,31.0,,230414,0.0,W,A*28
$GPGSA,A,3,01,03,11,14,19,20,22,23,27,31,32,,,,*16
$GPGSV,3,1,11,01,25,216,18,03,31,317,20,11,45,227,16,14,33,143,15*28
$GPGSV,3,2,11,19,47,300,17,20,13,248,16,22,20,112,17,23,11,310,18*01
$GPGSV,3,3,11,27,29,343,16,31,37,046,23,32,41,224,18*18
$GPGGA,204431,2344.415699,S,04635.031164,W,1,11,,,,785.6,M,,*3E
$GPVTG,nan,T,nan,M,0.0,N,0.0,K,A*23
$GPRMC,204431,A,2344.415699,S,04635.031164,W,32.0,,230414,0.0,W,A*2A
$GPGSA,A,3,01,03,11,14,19,20,22,23,27,31,32,,,,*16
$GPGSV,3,1,11,01,25,216,19,03,31,317,18,11,45,227,16,14,33,143,16*21
$GPGSV,3,2,11,19,47,300,19,20,13,248,16,22,20,112,17,23,11,310,18*0F
$GPGSV,3,3,11,27,29,343,16,31,37,046,23,32,41,224,18*61
$GPGGA,204432,2344.415698,S,04635.031163,W,1,11,,,,785.6,M,,*3B
$GPVTG,nan,T,nan,M,0.0,N,0.0,K,A*23
$GPRMC,204432,A,2344.415698,S,04635.031163,W,34.0,,010213,0.0,W,A*2F
$GPGSA,A,3,01,03,11,14,19,20,22,23,27,31,32,,,,*16
$GPGSV,3,1,11,01,25,216,20,03,31,317,18,11,45,227,16,14,33,143,16*2B
$GPGSV,3,2,11,19,47,300,19,20,13,248,13,22,20,112,17,23,11,310,12*79
$GPGSV,3,3,11,27,29,343,16,31,37,046,23,32,41,224,18*6F
$GPGGA,204433,2344.415697,S,04635.031163,W,1,11,,,,785.6,M,,*35
$GPVTG,nan,T,nan,M,0.0,N,0.0,K,A*23
$GPRMC,204433,A,2344.415697,S,04635.031163,W,42.0,,230414,0.0,W,A*21
$GPGSA,A,3,01,03,11,14,19,20,22,23,27,31,32,,,,*16
$GPGSV,3,1,11,01,25,216,20,03,31,317,18,11,45,227,13,14,33,143,16*2E
$GPGSV,3,2,11,19,47,300,17,20,13,248,13,22,20,112,17,23,11,310,12*75
$GPGSV,3,3,11,27,29,343,16,31,37,046,23,32,41,224,18*6F
$GPGGA,204434,2344.415697,S,04635.031161,W,1,11,,,,785.6,M,,*30
$GPVTG,nan,T,nan,M,0.0,N,0.0,K,A*23
$GPRMC,204434,A,2344.415697,S,04635.031161,W,25.0,,150114,0.0,W,A*24
$GPGSA,A,3,01,03,11,14,19,20,22,23,27,31,32,,,,*16
$GPGSV,3,1,11,01,25,216,19,03,31,317,18,11,45,227,13,14,33,143,16*24
$GPGSV,3,2,11,19,47,300,17,20,13,248,13,22,20,112,17,23,11,310,12*0E
$GPGSV,3,3,11,27,29,343,16,31,37,046,22,32,41,224,15*6F
$GPGGA,204435,2344.415695,S,04635.031160,W,1,11,,,,785.6,M,,*32
$GPVTG,nan,T,nan,M,0.0,N,0.0,K,A*23
$GPRMC,204435,A,2344.415695,S,04635.031160,W,30.0,,230414,0.0,W,A*26
$GPGSA,A,3,01,03,11,14,19,20,22,23,27,31,32,,,,*16
$GPGSV,3,1,11,01,25,216,19,03,31,317,18,11,45,227,13,14,33,143,15*27
$GPGSV,3,2,11,19,47,300,19,20,13,248,13,22,20,112,17,23,11,310,12*00
$GPGSV,3,3,11,27,29,343,14,31,37,046,23,32,41,224,15*17
$GPGGA,204436,2344.415693,S,04635.031158,W,1,11,,,,785.6,M,,*3C
$GPVTG,nan,T,nan,M,0.0,N,0.0,K,A*23
$GPRMC,204436,A,2344.415693,S,04635.031158,W,50.0,,230414,0.0,W,A*28
$GPGSA,A,3,01,03,11,14,19,20,22,23,27,31,32,,,,*16
$GPGSV,3,1,11,01,25,216,19,03,31,317,18,11,45,227,13,14,33,143,15*27
$GPGSV,3,2,11,19,47,300,21,20,13,248,13,22,20,112,17,23,11,310,14*0D
$GPGSV,3,3,11,27,29,343,14,31,37,046,24,32,41,224,15*69
$GPGGA,204437,2344.415692,S,04635.031157,W,1,11,,,,785.6,M,,*33
$GPVTG,nan,T,nan,M,0.0,N,0.0,K,A*23
$GPRMC,204437,A,2344.415692,S,04635.031157,W,40.0,,230414,0.0,W,A*27
$GPGSA,A,3,01,03,11,14,19,20,22,23,27,31,32,,,,*16
$GPGSV,3,1,11,01,25,216,18,03,31,317,17,11,45,227,13,14,33,143,15*29
$GPGSV,3,2,11,19,47,300,20,20,13,248,13,22,20,112,17,23,11,310,14*0C
$GPGSV,3,3,11,27,29,343,14,31,37,046,22,32,41,224,15*69
$GPGGA,204438,2344.415692,S,04635.031157,W,1,11,,,,785.6,M,,*3C
$GPVTG,nan,T,nan,M,0.0,N,0.0,K,A*23
$GPRMC,204438,A,2344.415692,S,04635.031157,W,30.0,,230414,0.0,W,A*28
$GPGSA,A,3,01,03,11,14,19,20,22,23,27,31,32,,,,*16
$GPGSV,3,1,11,01,25,216,18,03,31,317,20,11,45,227,18,14,33,143,17*24
$GPGSV,3,2,11,19,47,300,20,20,13,248,13,22,20,112,17,23,11,310,17*0F
$GPGSV,3,3,11,27,29,343,14,31,37,046,22,32,41,224,17*6D
$GPGGA,204439,2344.415690,S,04635.031154,W,1,11,,,,785.6,M,,*3C
$GPVTG,nan,T,nan,M,0.0,N,0.0,K,A*23
$GPRMC,204439,A,2344.415690,S,04635.031154,W,20.0,,230414,0.0,W,A*28
$GPGSA,A,3,01,03,11,14,19,20,22,23,27,31,32,,,,*16
$GPGSV,3,1,11,01,25,216,16,03,31,317,19,11,45,227,24,14,33,143,19*21
$GPGSV,3,2,11,19,47,300,22,20,13,248,13,22,20,112,13,23,11,310,19*07
$GPGSV,3,3,11,27,29,343,14,31,37,046,23,32,41,224,25*14
$GPGGA,204440,2344.415686,S,04635.031150,W,1,11,,,,785.6,M,,*31
$GPVTG,nan,T,nan,M,0.0,N,0.0,K,A*23
$GPRMC,204440,A,2344.415686,S,04635.031150,W,10.0,,230414,0.0,W,A*25
$GPGSA,A,3,01,03,11,14,19,20,22,23,27,31,32,,,,*16
$GPGSV,3,1,11,01,25,216,23,03,31,317,25,11,45,227,25,14,33,143,26*25
$GPGSV,3,2,11,19,47,300,27,20,13,248,13,22,20,112,23,23,11,310,20*0B
$GPGSV,3,3,11,27,29,343,16,31,37,046,25,32,41,224,22*6E
$GPGGA,204441,2344.415685,S,04635.031148,W,1,11,,,,785.6,M,,*3A
$GPVTG,nan,T,nan,M,0.0,N,0.0,K,A*23
$GPRMC,204441,A,2344.415685,S,04635.031148,W,0.0,,230414,0.0,W,A*2E
$GPGSA,A,3,01,03,11,14,19,20,22,23,27,31,32,,,,*16
$GPGSV,3,1,11,01,25,216,23,03,31,317,23,11,45,227,26,14,33,143,25*23
$GPGSV,3,2,11,19,47,300,22,20,13,248,14,22,20,112,24,23,11,310,19*04
$GPGSV,3,3,11,27,29,343,19,31,37,046,22,32,41,224,25*18
$GPGGA,204442,2344.415681,S,04635.031146,W,1,11,,,,785.7,M,,*32
$GPVTG,nan,T,nan,M,0.0,N,0.0,K,A*23
$GPRMC,204442,A,2344.415681,S,04635.031146,W,0.0,,230414,0.0,W,A*27
$GPGSA,A,3,01,03,11,14,19,20,22,23,27,31,32,,,,*16
$GPGSV,3,1,11,01,25,216,19,03,31,317,26,11,45,227,21,14,33,143,20*2D
$GPGSV,3,2,11,19,47,300,25,20,13,248,23,22,20,112,19,23,11,310,22*78
$GPGSV,3,3,11,27,29,343,22,31,37,046,24,32,41,224,26*62
$GPGGA,204443,2344.415680,S,04635.031145,W,1,11,,,,785.7,M,,*31
$GPVTG,nan,T,nan,M,0.0,N,0.0,K,A*23
$GPRMC,204443,A,2344.415680,S,04635.031145,W,10.0,,230414,0.0,W,A*24
$GPGSA,A,3,01,03,11,14,19,20,22,23,27,31,32,,,,*16
$GPGSV,3,1,11,01,25,216,21,03,31,317,22,11,45,227,28,14,33,143,20*2B
$GPGSV,3,2,11,19,47,300,28,20,13,248,23,22,20,112,20,23,11,310,22*7F
$GPGSV,3,3,11,27,29,343,22,31,37,046,21,32,41,224,26*1E
$GPGGA,204444,2344.415667,S,04635.031134,W,1,11,,,,785.8,M,,*36
$GPVTG,nan,T,nan,M,0.0,N,0.0,K,A*23
$GPRMC,204444,A,2344.415667,S,04635.031134,W,20.0,,230414,0.0,W,A*2C
$GPGSA,A,3,01,03,11,14,19,20,22,23,27,31,32,,,,*16
$GPGSV,3,1,11,01,25,216,25,03,31,317,23,11,45,227,25,14,33,143,21*22
$GPGSV,3,2,11,19,47,300,29,20,13,248,18,22,20,112,20,23,11,310,18*06
$GPGSV,3,3,11,27,29,343,20,31,37,046,31,32,41,224,25*10
$GPGGA,204445,2344.415665,S,04635.031132,W,1,11,,,,785.8,M,,*33
$GPVTG,nan,T,nan,M,0.0,N,0.0,K,A*23
$GPRMC,204445,A,2344.415665,S,04635.031132,W,30.0,,230414,0.0,W,A*29
$GPGSA,A,3,01,03,11,14,19,20,22,23,27,31,32,,,,*16
$GPGSV,3,1,11,01,25,216,19,03,31,317,18,11,45,227,20,14,33,143,21*20
$GPGSV,3,2,11,19,47,300,23,20,13,248,18,22,20,112,20,23,11,310,21*06
$GPGSV,3,3,11,27,29,343,20,31,37,046,23,32,41,224,20*16
$GPGGA,204446,2344.415666,S,04635.031132,W,1,11,,,,785.8,M,,*33
$GPVTG,nan,T,nan,M,0.0,N,0.0,K,A*23
$GPRMC,204446,A,2344.415666,S,04635.031132,W,40.0,,230414,0.0,W,A*29
$GPGSA,A,3,01,03,11,14,19,20,22,23,27,31,32,,,,*16
$GPGSV,3,1,11,01,25,216,19,03,31,317,18,11,45,227,21,14,33,143,21*21
$GPGSV,3,2,11,19,47,300,23,20,13,248,18,22,20,112,20,23,11,310,21*06
$GPGSV,3,3,11,27,29,343,20,31,37,046,23,32,41,224,21*17
$GPGGA,204447,2344.415665,S,04635.031132,W,1,11,,,,785.8,M,,*31
$GPVTG,nan,T,nan,M,0.0,N,0.0,K,A*23
$GPRMC,204447,A,2344.415665,S,04635.031132,W,50.0,,230414,0.0,W,A*2B
$GPGSA,A,3,01,03,11,14,19,20,22,23,27,31,32,,,,*16
$GPGSV,3,1,11,01,25,216,19,03,31,317,16,11,45,227,21,14,33,143,21*2F
$GPGSV,3,2,11,19,47,300,23,20,13,248,18,22,20,112,20,23,11,310,17*7A
$GPGSV,3,3,11,27,29,343,17,31,37,046,23,32,41,224,21*1F
$GPGGA,204448,2344.415666,S,04635.031132,W,1,11,,,,785.8,M,,*3D
$GPVTG,nan,T,nan,M,0.0,N,0.0,K,A*23
$GPRMC,204448,A,2344.415666,S,04635.031132,W,60.0,,230414,0.0,W,A*27
$GPGSA,A,3,01,03,11,14,19,20,22,23,27,31,32,,,,*16
$GPGSV,3,1,11,01,25,216,19,03,31,317,16,11,45,227,19,14,33,143,21*24
$GPGSV,3,2,11,19,47,300,23,20,13,248,18,22,20,112,20,23,11,310,17*03
$GPGSV,3,3,11,27,29,343,17,31,37,046,23,32,41,224,17*16
$GPGGA,204449,2344.415665,S,04635.031132,W,1,11,,,,785.8,M,,*3F
$GPVTG,nan,T,nan,M,0.0,N,0.0,K,A*23
$GPRMC,204449,A,2344.415665,S,04635.031132,W,70.0,,230414,0.0,W,A*25
$GPGSA,A,3,01,03,11,14,19,20,22,23,27,31,32,,,,*16
$GPGSV,3,1,11,01,25,216,19,03,31,317,16,11,45,227,18,14,33,143,21*25
$GPGSV,3,2,11,19,47,300,23,20,13,248,18,22,20,112,20,23,11,310,17*03
$GPGSV,3,3,11,27,29,343,17,31,37,046,23,32,41,224,17*16
$GPGGA,204450,2344.415665,S,04635.031132,W,1,11,,,,785.8,M,,*37
$GPVTG,nan,T,nan,M,0.0,N,0.0,K,A*23
$GPRMC,204450,A,2344.415665,S,04635.031132,W,80.0,,230414,0.0,W,A*2D
$GPGSA,A,3,01,03,11,14,19,20,22,23,27,31,32,,,,*16
$GPGSV,3,1,11,01,25,216,19,03,31,317,16,11,45,227,18,14,33,143,21*25
$GPGSV,3,2,11,19,47,300,23,20,13,248,18,22,20,112,20,23,11,310,17*03
$GPGSV,3,3,11,27,29,343,18,31,37,046,23,32,41,224,18*16
$GPGGA,204451,2344.415665,S,04635.031132,W,1,11,,,,785.8,M,,*36
$GPVTG,nan,T,nan,M,0.0,N,0.0,K,A*23
$GPRMC,204451,A,2344.415665,S,04635.031132,W,75.0,,230414,0.0,W,A*2C
$GPGSA,A,3,01,03,11,14,19,20,22,23,27,31,32,,,,*16
$GPGSV,3,1,11,01,25,216,19,03,31,317,16,11,45,227,18,14,33,143,21*25
$GPGSV,3,2,11,19,47,300,23,20,13,248,18,22,20,112,20,23,11,310,17*03
$GPGSV,3,3,11,27,29,343,18,31,37,046,23,32,41,224,18*16
$GPGGA,204452,2344.415665,S,04635.031132,W,1,11,,,,785.8,M,,*35
$GPVTG,nan,T,nan,M,0.0,N,0.0,K,A*23
$GPRMC,204452,A,2344.415665,S,04635.031132,W,60.0,,230414,0.0,W,A*2F
$GPGSA,A,3,01,03,11,14,19,20,22,23,27,31,32,,,,*16
$GPGSV,3,1,11,01,25,216,19,03,31,317,16,11,45,227,17,14,33,143,21*2A
$GPGSV,3,2,11,19,47,300,23,20,13,248,18,22,20,112,20,23,11,310,17*78
$GPGSV,3,3,11,27,29,343,18,31,37,046,23,32,41,224,18*61
$GPGGA,204453,2344.415665,S,04635.031132,W,1,11,,,,785.8,M,,*34
$GPVTG,nan,T,nan,M,0.0,N,0.0,K,A*23
$GPRMC,204453,A,2344.415665,S,04635.031132,W,50.0,,230414,0.0,W,A*2E
$GPGSA,A,3,01,03,11,14,19,20,22,23,27,31,32,,,,*16
$GPGSV,3,1,11,01,25,216,19,03,31,317,16,11,45,227,17,14,33,143,21*2A
$GPGSV,3,2,11,19,47,300,23,20,13,248,18,22,20,112,20,23,11,310,17*78
$GPGSV,3,3,11,27,29,343,16,31,37,046,23,32,41,224,18*6F
$GPGGA,204454,2344.415665,S,04635.031132,W,1,11,,,,785.8,M,,*33
$GPVTG,nan,T,nan,M,0.0,N,0.0,K,A*23
$GPRMC,204454,A,2344.415665,S,04635.031132,W,40.0,,230414,0.0,W,A*29
$GPGSA,A,3,01,03,11,14,19,20,22,23,27,31,32,,,,*16
$GPGSV,3,1,11,01,25,216,19,03,31,317,16,11,45,227,16,14,33,143,21*2B
$GPGSV,3,2,11,19,47,300,23,20,13,248,18,22,20,112,20,23,11,310,14*79
$GPGSV,3,3,11,27,29,343,20,31,37,046,23,32,41,224,17*65
$GPGGA,204455,2344.415665,S,04635.031132,W,1,11,,,,785.8,M,,*32
$GPVTG,nan,T,nan,M,0.0,N,0.0,K,A*23
$GPRMC,204455,A,2344.415665,S,04635.031132,W,0.0,,230414,0.0,W,A*28
$GPGSA,A,3,01,03,11,14,19,20,22,23,27,31,32,,,,*16
$GPGSV,3,1,11,01,25,216,19,03,31,317,16,11,45,227,16,14,33,143,21*2B
$GPGSV,3,2,11,19,47,300,23,20,13,248,18,22,20,112,20,23,11,310,14*79
$GPGSV,3,3,11,27,29,343,20,31,37,046,23,32,41,224,18*6A
$GPGGA,204456,2344.415664,S,04635.031132,W,1,11,,,,785.8,M,,*30
$GPVTG,nan,T,nan,M,0.0,N,0.0,K,A*23
$GPRMC,204456,A,2344.415664,S,04635.031132,W,0.0,,230414,0.0,W,A*2A
$GPGSA,A,3,01,03,11,14,19,20,22,23,27,31,32,,,,*16
$GPGSV,3,1,11,01,25,216,19,03,31,317,13,11,45,227,18,14,33,143,21*20
$GPGSV,3,2,11,19,47,300,23,20,13,248,18,22,20,112,20,23,11,310,14*00
$GPGSV,3,3,11,27,29,343,18,31,37,046,23,32,41,224,20*1D
$GPGGA,204457,2344.415664,S,04635.031132,W,1,11,,,,785.8,M,,*31
$GPVTG,nan,T,nan,M,0.0,N,0.0,K,A*23
$GPRMC,204457,A,2344.415664,S,04635.031132,W,0.0,,230414,0.0,W,A*2B
$GPGSA,A,3,01,03,11,14,19,20,22,23,27,31,32,,,,*16
$GPGSV,3,1,11,01,25,216,19,03,31,317,13,11,45,227,18,14,33,143,21*20
$GPGSV,3,2,11,19,47,300,23,20,13,248,18,22,20,112,20,23,11,310,14*00
$GPGSV,3,3,11,27,29,343,19,31,37,046,23,32,41,224,18*17
$GPGGA,204458,2344.415664,S,04635.031132,W,1,11,,,,785.8,M,,*3E
$GPVTG,nan,T,nan,M,0.0,N,0.0,K,A*23
$GPRMC,204458,A,2344.415664,S,04635.031132,W,0.0,,230414,0.0,W,A*24
$GPGSA,A,3,01,03,11,14,19,20,22,23,27,31,32,,,,*16
$GPGSV,3,1,11,01,25,216,19,03,31,317,13,11,45,227,18,14,33,143,21*20
$GPGSV,3,2,11,19,47,300,23,20,13,248,18,22,20,112,20,23,11,310,14*00
$GPGSV,3,3,11,27,29,343,19,31,37,046,23,32,41,224,18*17
$GPGGA,204459,2344.415664,S,04635.031132,W,1,11,,,,785.8,M,,*3F
$GPVTG,nan,T,nan,M,0.0,N,0.0,K,A*23
$GPRMC,204459,A,2344.415664,S,04635.031132,W,0.0,,230414,0.0,W,A*25
$GPGSA,A,3,01,03,11,14,19,20,22,23,27,31,32,,,,*16
$GPGSV,3,1,11,01,25,216,19,03,31,317,13,11,45,227,18,14,33,143,21*20
$GPGSV,3,2,11,19,47,300,23,20,13,248,18,22,20,112,20,23,11,310,15*01
$GPGSV,3,3,11,27,29,343,16,31,37,046,23,32,41,224,19*19
$GPGGA,204500,2344.415664,S,04635.031132,W,1,11,,,,785.8,M,,*32
$GPVTG,nan,T,nan,M,0.0,N,0.0,K,A*23
$GPRMC,204500,A,2344.415664,S,04635.031132,W,0.0,,230414,0.0,W,A*28
$GPGSA,A,3,01,03,11,14,19,20,22,23,27,31,32,,,,*16
$GPGSV,3,1,11,01,25,216,19,03,31,317,13,11,45,227,16,14,33,143,21*2E
$GPGSV,3,2,11,19,47,300,23,20,13,248,18,22,20,112,20,23,11,310,15*7A
$GPGSV,3,3,11,27,29,343,16,31,37,046,23,32,41,224,19*15
$GPGGA,204501,2344.415664,S,04635.031132,W,1,11,,,,785.8,M,,*33
$GPVTG,nan,T,nan,M,0.0,N,0.0,K,A*23
$GPRMC,204501,A,2344.415664,S,04635.031132,W,0.0,,230414,0.0,W,A*29
$GPGSA,A,3,01,03,11,14,19,20,22,23,27,31,32,,,,*16
$GPGSV,3,1,11,01,25,216,19,03,31,317,14,11,45,227,16,14,33,143,21*29
$GPGSV,3,2,11,19,47,300,23,20,13,248,18,22,20,112,20,23,11,310,15*01
$GPGSV,3,3,11,27,29,343,16,31,37,046,23,32,41,224,20*13
